{"wires": [{"id": 0, "name": "black_wire", "color": "black", "state": "on_table", "coordinates": [[0.3294944505256813], [0.3858933695706963], [0.006355991908928431]]}, {"id": 1, "name": "blue_wire", "color": "blue", "state": "on_table", "coordinates": [[0.22546641767620287], [0.2972653192163218], [0.003697378462759784]]}, {"id": 2, "name": "orange_wire", "color": "orange", "state": "on_table", "coordinates": [[0.45712624633001875], [0.25549758325410626], [0.004091338808710139]]}, {"id": 3, "name": "red_wire", "color": "red", "state": "on_table", "coordinates": [[-0.04432072666320347], [0.19830991336525106], [0.007967381872986455]]}, {"id": 4, "name": "red_wire", "color": "red", "state": "on_table", "coordinates": [[0.3348053851459439], [0.3158621082652143], [0.008082290966726021]]}, {"id": 5, "name": "green_wire", "color": "green", "state": "on_table", "coordinates": [[0.26718060266955906], [0.41400881392981564], [0.006804106483956809]]}, {"id": 6, "name": "red_wire", "color": "red", "state": "on_table", "coordinates": [[0.29779748202177164], [0.4199121527712334], [0.003792825562359102]]}, {"id": 7, "name": "red_wire", "color": "red", "state": "on_table", "coordinates": [[0.3449052545730399], [0.3795151208253056], [0.0047570204206345895]]}, {"id": 8, "name": "green_wire", "color": "green", "state": "on_table", "coordinates": [[0.41327777941323174], [0.25392003124388723], [0.006655168782914073]]}], "terminals": {"terminal_0": {"state": "empty", "coordinates": -0.027621084853182334}, "terminal_1": {"state": "empty", "coordinates": -0.027621082851237336}, "terminal_2": {"state": "empty", "coordinates": -0.02762108084929235}, "terminal_3": {"state": "empty", "coordinates": -0.027621078868890966}, "terminal_4": {"state": "empty", "coordinates": -0.027621076888489582}, "terminal_5": {"state": "empty", "coordinates": -0.027621074908088197}, "terminal_6": {"state": "empty", "coordinates": -0.027621072923613044}, "terminal_7": {"state": "empty", "coordinates": -0.027621070925647084}, "terminal_8": {"state": "empty", "coordinates": -0.027621068948675248}}}