{"wires": [{"id": 0, "name": "blue_wire", "color": "blue", "state": "on_table", "coordinates": [[0.10104793768100612], [0.3063498795965427], [0.007088095364841648]]}, {"id": 1, "name": "orange_wire", "color": "orange", "state": "on_table", "coordinates": [[0.33213758581998], [0.4487816467845957], [0.004757792704676822]]}, {"id": 2, "name": "red_wire", "color": "red", "state": "on_table", "coordinates": [[0.26517386063595627], [0.4287671370183307], [0.008172772298817497]]}], "terminals": {"terminal_0": {"state": "empty", "coordinates": -0.027621084853182334}, "terminal_1": {"state": "empty", "coordinates": -0.027621082851237336}, "terminal_2": {"state": "empty", "coordinates": -0.02762108084929235}, "terminal_3": {"state": "empty", "coordinates": -0.027621078868890966}, "terminal_4": {"state": "empty", "coordinates": -0.027621076888489582}, "terminal_5": {"state": "empty", "coordinates": -0.027621074908088197}, "terminal_6": {"state": "empty", "coordinates": -0.027621072923613044}, "terminal_7": {"state": "empty", "coordinates": -0.027621070925647084}, "terminal_8": {"state": "empty", "coordinates": -0.027621068948675248}}}