{"wires": [{"id": 0, "name": "orange_wire", "color": "orange", "state": "on_table", "coordinates": [[0.33649892602566345], [0.31791964426554575], [0.005719987686067514]]}, {"id": 1, "name": "blue_wire", "color": "blue", "state": "on_table", "coordinates": [[0.3052671535831329], [0.2574001253251549], [0.005546534916565586]]}, {"id": 2, "name": "blue_wire", "color": "blue", "state": "on_table", "coordinates": [[0.3526727800920006], [0.22047467808461507], [0.007519896194234342]]}, {"id": 3, "name": "blue_wire", "color": "blue", "state": "on_table", "coordinates": [[0.22404703806197424], [0.3648458541154292], [0.00452384698981699]]}, {"id": 4, "name": "yellow_wire", "color": "yellow", "state": "on_table", "coordinates": [[0.3085264477230254], [0.24608707750881953], [0.003997416460967126]]}, {"id": 5, "name": "orange_wire", "color": "orange", "state": "on_table", "coordinates": [[0.2754393327147176], [0.270066150205522], [0.004431144289856802]]}, {"id": 6, "name": "yellow_wire", "color": "yellow", "state": "on_table", "coordinates": [[0.2282098085694569], [0.2955743261609755], [0.004383344926733224]]}], "terminals": {"terminal_0": {"state": "empty", "coordinates": -0.027621084853182334}, "terminal_1": {"state": "empty", "coordinates": -0.027621082851237336}, "terminal_2": {"state": "empty", "coordinates": -0.02762108084929235}, "terminal_3": {"state": "empty", "coordinates": -0.027621078868890966}, "terminal_4": {"state": "empty", "coordinates": -0.027621076888489582}, "terminal_5": {"state": "empty", "coordinates": -0.027621074908088197}, "terminal_6": {"state": "empty", "coordinates": -0.027621072923613044}, "terminal_7": {"state": "empty", "coordinates": -0.027621070925647084}, "terminal_8": {"state": "empty", "coordinates": -0.027621068948675248}}}