{"wires": [{"id": 0, "name": "yellow_wire", "color": "yellow", "state": "on_table", "coordinates": [[0.3058728990675035], [0.1994553981864936], [0.004030041297002761]]}, {"id": 1, "name": "black_wire", "color": "black", "state": "on_table", "coordinates": [[0.16249210922076746], [0.25200523177481593], [0.004161290456885246]]}, {"id": 2, "name": "black_wire", "color": "black", "state": "on_table", "coordinates": [[0.28532638390060655], [0.34930139002452837], [0.0063146218878304605]]}, {"id": 3, "name": "white_wire", "color": "white", "state": "on_table", "coordinates": [[0.4015033177281774], [0.16997623637688483], [0.005628153968045828]]}, {"id": 4, "name": "black_wire", "color": "black", "state": "on_table", "coordinates": [[0.2946272462687748], [0.3284749181123538], [0.006342418553980066]]}, {"id": 5, "name": "blue_wire", "color": "blue", "state": "on_table", "coordinates": [[0.28630682347104336], [0.2987052495619358], [0.005177596362998832]]}, {"id": 6, "name": "black_wire", "color": "black", "state": "on_table", "coordinates": [[0.17988788034930236], [0.25176320079302517], [0.0038507531706227518]]}, {"id": 7, "name": "red_wire", "color": "red", "state": "on_table", "coordinates": [[0.1862561434290146], [0.42953989185529273], [0.005643575804559528]]}, {"id": 8, "name": "orange_wire", "color": "orange", "state": "on_table", "coordinates": [[0.352207744196421], [0.2952259843958245], [0.004311993646507145]]}, {"id": 9, "name": "yellow_wire", "color": "yellow", "state": "on_table", "coordinates": [[0.373027403693474], [0.2560595329536207], [0.005118275810872758]]}, {"id": 10, "name": "red_wire", "color": "red", "state": "on_table", "coordinates": [[0.1509396769913498], [0.5211113758508364], [0.0049725696556367285]]}, {"id": 11, "name": "orange_wire", "color": "orange", "state": "on_table", "coordinates": [[0.3005563470446679], [0.31232162586833223], [0.004360016729309527]]}, {"id": 12, "name": "blue_wire", "color": "blue", "state": "on_table", "coordinates": [[0.3684585121043449], [0.20490507261516155], [0.0044997059918699825]]}, {"id": 13, "name": "orange_wire", "color": "orange", "state": "on_table", "coordinates": [[0.284577983527115], [0.30120006654039705], [0.010036652120541126]]}, {"id": 14, "name": "orange_wire", "color": "orange", "state": "on_table", "coordinates": [[0.4728645448350845], [0.3095494201680481], [0.004402102567030797]]}], "terminals": {"terminal_0": {"state": "empty", "coordinates": -0.027621084853182334}, "terminal_1": {"state": "empty", "coordinates": -0.027621082851237336}, "terminal_2": {"state": "empty", "coordinates": -0.02762108084929235}, "terminal_3": {"state": "empty", "coordinates": -0.027621078868890966}, "terminal_4": {"state": "empty", "coordinates": -0.027621076888489582}, "terminal_5": {"state": "empty", "coordinates": -0.027621074908088197}, "terminal_6": {"state": "empty", "coordinates": -0.027621072923613044}, "terminal_7": {"state": "empty", "coordinates": -0.027621070925647084}, "terminal_8": {"state": "empty", "coordinates": -0.027621068948675248}}}