{"wires": [{"id": 0, "name": "white_wire", "color": "white", "state": "on_table", "coordinates": [[0.2569446795560682], [0.46854153005060706], [0.00536285023443049]]}, {"id": 1, "name": "yellow_wire", "color": "yellow", "state": "on_table", "coordinates": [[0.1325433235280938], [0.28734086278626425], [0.005516931525276216]]}, {"id": 2, "name": "orange_wire", "color": "orange", "state": "on_table", "coordinates": [[0.3398443472231698], [0.3084904537353321], [0.00883019758557427]]}, {"id": 3, "name": "yellow_wire", "color": "yellow", "state": "on_table", "coordinates": [[0.2797183718804658], [0.27933595159214986], [0.005758839393441]]}], "terminals": {"terminal_0": {"state": "empty", "coordinates": -0.027621084853182334}, "terminal_1": {"state": "empty", "coordinates": -0.027621082851237336}, "terminal_2": {"state": "empty", "coordinates": -0.02762108084929235}, "terminal_3": {"state": "empty", "coordinates": -0.027621078868890966}, "terminal_4": {"state": "empty", "coordinates": -0.027621076888489582}, "terminal_5": {"state": "empty", "coordinates": -0.027621074908088197}, "terminal_6": {"state": "empty", "coordinates": -0.027621072923613044}, "terminal_7": {"state": "empty", "coordinates": -0.027621070925647084}, "terminal_8": {"state": "empty", "coordinates": -0.027621068948675248}}}