{"wires": [{"id": 0, "name": "yellow_wire", "color": "yellow", "state": "on_table", "coordinates": [[0.2402256964314643], [0.35883712577312277], [0.007089455372521217]]}, {"id": 1, "name": "black_wire", "color": "black", "state": "on_table", "coordinates": [[0.21098208792005374], [0.14703985526089466], [0.0039336915332125215]]}, {"id": 2, "name": "yellow_wire", "color": "yellow", "state": "on_table", "coordinates": [[0.32807757467095455], [0.22910861014895062], [0.0056843780482506885]]}, {"id": 3, "name": "red_wire", "color": "red", "state": "on_table", "coordinates": [[0.23987003167645474], [0.3063186442882239], [0.004413061605199925]]}, {"id": 4, "name": "yellow_wire", "color": "yellow", "state": "on_table", "coordinates": [[0.2808326460497518], [0.12081918196681138], [0.003599043591630028]]}, {"id": 5, "name": "orange_wire", "color": "orange", "state": "on_table", "coordinates": [[0.27010617997189856], [0.37457402028513287], [0.004098172997405799]]}, {"id": 6, "name": "red_wire", "color": "red", "state": "on_table", "coordinates": [[0.24547288007723442], [0.19106924807201767], [0.007133273376918738]]}, {"id": 7, "name": "yellow_wire", "color": "yellow", "state": "on_table", "coordinates": [[0.3618124003059644], [0.2598226963670383], [0.004225910548149483]]}, {"id": 8, "name": "black_wire", "color": "black", "state": "on_table", "coordinates": [[0.3086756210409293], [0.4843588423317189], [0.003676632320098157]]}, {"id": 9, "name": "white_wire", "color": "white", "state": "on_table", "coordinates": [[0.35187029893417177], [0.26883625886016904], [0.0061500746291834486]]}, {"id": 10, "name": "green_wire", "color": "green", "state": "on_table", "coordinates": [[0.37953366979933356], [0.2449843483127142], [0.005142194871652305]]}, {"id": 11, "name": "white_wire", "color": "white", "state": "on_table", "coordinates": [[0.31700374792966735], [0.32500609170258066], [0.0036802690394516125]]}, {"id": 12, "name": "black_wire", "color": "black", "state": "on_table", "coordinates": [[0.37169498200072537], [0.14271652456929618], [0.004833637562219142]]}, {"id": 13, "name": "yellow_wire", "color": "yellow", "state": "on_table", "coordinates": [[0.39047737318438863], [0.3738869135765345], [0.003623318071221842]]}, {"id": 14, "name": "black_wire", "color": "black", "state": "on_table", "coordinates": [[0.2607681141444277], [0.4632751669377003], [0.004362387022860832]]}, {"id": 15, "name": "red_wire", "color": "red", "state": "on_table", "coordinates": [[0.40704193640201847], [0.1706503755738663], [0.006491818901552226]]}, {"id": 16, "name": "orange_wire", "color": "orange", "state": "on_table", "coordinates": [[0.19826684501274563], [0.3196148414914908], [0.00631207862020714]]}, {"id": 17, "name": "yellow_wire", "color": "yellow", "state": "on_table", "coordinates": [[0.26809776959357823], [0.4653807181693158], [0.003743687435896984]]}, {"id": 18, "name": "blue_wire", "color": "blue", "state": "on_table", "coordinates": [[0.43330628335789506], [0.388320073882185], [0.0063258149751409054]]}, {"id": 19, "name": "black_wire", "color": "black", "state": "on_table", "coordinates": [[0.2667884936492006], [0.33599913371293527], [0.004647860613539309]]}], "terminals": {"terminal_0": {"state": "empty", "coordinates": -0.027621084853182334}, "terminal_1": {"state": "empty", "coordinates": -0.027621082851237336}, "terminal_2": {"state": "empty", "coordinates": -0.02762108084929235}, "terminal_3": {"state": "empty", "coordinates": -0.027621078868890966}, "terminal_4": {"state": "empty", "coordinates": -0.027621076888489582}, "terminal_5": {"state": "empty", "coordinates": -0.027621074908088197}, "terminal_6": {"state": "empty", "coordinates": -0.027621072923613044}, "terminal_7": {"state": "empty", "coordinates": -0.027621070925647084}, "terminal_8": {"state": "empty", "coordinates": -0.027621068948675248}}}