{"wires": [{"id": 0, "name": "black_wire", "color": "black", "state": "on_table", "coordinates": [[0.397332956767771], [0.10215330784820009], [0.0037117743528229954]]}, {"id": 1, "name": "blue_wire", "color": "blue", "state": "on_table", "coordinates": [[0.3187598682678223], [0.28798169678943203], [0.005054158627241512]]}, {"id": 2, "name": "black_wire", "color": "black", "state": "on_table", "coordinates": [[0.27171280451495033], [0.2494051206480491], [0.004475969753539219]]}], "terminals": {"terminal_0": {"state": "empty", "coordinates": -0.027621084853182334}, "terminal_1": {"state": "empty", "coordinates": -0.027621082851237336}, "terminal_2": {"state": "empty", "coordinates": -0.02762108084929235}, "terminal_3": {"state": "empty", "coordinates": -0.027621078868890966}, "terminal_4": {"state": "empty", "coordinates": -0.027621076888489582}, "terminal_5": {"state": "empty", "coordinates": -0.027621074908088197}, "terminal_6": {"state": "empty", "coordinates": -0.027621072923613044}, "terminal_7": {"state": "empty", "coordinates": -0.027621070925647084}, "terminal_8": {"state": "empty", "coordinates": -0.027621068948675248}}}