{"wires": [{"id": 0, "name": "blue_wire", "color": "blue", "state": "on_table", "coordinates": [0.30395910524945097, 0.32374623151734594, 0.004965932866483485]}, {"id": 1, "name": "yellow_wire", "color": "yellow", "state": "on_table", "coordinates": [0.47349093638494544, 0.2212969977936698, 0.003619616362599673]}, {"id": 2, "name": "yellow_wire", "color": "yellow", "state": "on_table", "coordinates": [0.2398610777459661, 0.4542445061000752, 0.006270454248076032]}, {"id": 3, "name": "white_wire", "color": "white", "state": "on_table", "coordinates": [0.24651943338814966, 0.25941463522378294, 0.00387525346428983]}, {"id": 4, "name": "red_wire", "color": "red", "state": "on_table", "coordinates": [0.29769294210884234, 0.3836357299765354, 0.005860054863098032]}, {"id": 5, "name": "blue_wire", "color": "blue", "state": "on_table", "coordinates": [0.1552808616043028, 0.21980732747958248, 0.0036740680785135303]}, {"id": 6, "name": "red_wire", "color": "red", "state": "on_table", "coordinates": [0.08669434616212326, 0.2426172999569049, 0.007390134712996139]}, {"id": 7, "name": "blue_wire", "color": "blue", "state": "on_table", "coordinates": [0.40300855128566343, 0.2301892065043349, 0.00544849127917889]}, {"id": 8, "name": "green_wire", "color": "green", "state": "on_table", "coordinates": [0.26910401909443643, 0.42496899901716684, 0.006401616483169656]}, {"id": 9, "name": "green_wire", "color": "green", "state": "on_table", "coordinates": [0.3427988635499651, 0.2807072881006186, 0.0066676063803254824]}, {"id": 10, "name": "red_wire", "color": "red", "state": "on_table", "coordinates": [0.36105768843990105, 0.25004100137731755, 0.003984234355648683]}, {"id": 11, "name": "yellow_wire", "color": "yellow", "state": "on_table", "coordinates": [0.3449186145895643, 0.22745794466924413, 0.00428184766544183]}, {"id": 12, "name": "red_wire", "color": "red", "state": "on_table", "coordinates": [0.21133765385252334, 0.37875056293142073, 0.004172798137528043]}, {"id": 13, "name": "black_wire", "color": "black", "state": "on_table", "coordinates": [0.41920677162162, 0.19486910087241838, 0.00488966298611417]}, {"id": 14, "name": "red_wire", "color": "red", "state": "on_table", "coordinates": [0.23174387502903593, 0.4439042288230349, 0.00411693171691063]}, {"id": 15, "name": "orange_wire", "color": "orange", "state": "on_table", "coordinates": [0.26457876810405756, 0.3409019577279667, 0.004898218653973182]}, {"id": 16, "name": "black_wire", "color": "black", "state": "on_table", "coordinates": [0.28599342540069067, 0.14323758165742606, 0.0036548888384492547]}, {"id": 17, "name": "red_wire", "color": "red", "state": "on_table", "coordinates": [0.33974359768561746, 0.2710654717966429, 0.006645803846935217]}, {"id": 18, "name": "black_wire", "color": "black", "state": "on_table", "coordinates": [0.3389356729131166, 0.2849095752966016, 0.004438741422146621]}], "terminals": {"terminal_0": {"state": "empty", "coordinates": [-0.027621084853182334, 0.35966625677306774, 0.013125624011528413]}, "terminal_1": {"state": "empty", "coordinates": [-0.027621082851237336, 0.3702318567730673, 0.013125625788096153]}, "terminal_2": {"state": "empty", "coordinates": [-0.02762108084929235, 0.380797456773067, 0.013125627564663891]}, "terminal_3": {"state": "empty", "coordinates": [-0.027621078868890966, 0.3912493567730666, 0.013125629322113383]}, "terminal_4": {"state": "empty", "coordinates": [-0.027621076888489582, 0.4017012567730663, 0.013125631079562876]}, "terminal_5": {"state": "empty", "coordinates": [-0.027621074908088197, 0.41215315677306597, 0.013125632837012367]}, "terminal_6": {"state": "empty", "coordinates": [-0.027621072923613044, 0.42262655677306565, 0.013125634598077007]}, "terminal_7": {"state": "empty", "coordinates": [-0.027621070925647084, 0.4331711567730653, 0.01312563637111367]}, "terminal_8": {"state": "empty", "coordinates": [-0.027621068948675248, 0.44360495677306494, 0.013125638125519713]}}, "sample_label": "pick"}