{"wires": [{"ID": 0, "name": "red_wire", "color": "red", "state": "on_table", "coordinates": [0.3023635745048523, 0.26907235383987427, 0.002398964948952198]}, {"ID": 1, "name": "green_wire", "color": "green", "state": "on_table", "coordinates": [0.2662334442138672, 0.32087206840515137, 0.01799735426902771]}, {"ID": 2, "name": "black_wire", "color": "black", "state": "on_table", "coordinates": [0.2445390820503235, 0.2700042724609375, 0.002509342972189188]}, {"ID": 3, "name": "white_wire", "color": "white", "state": "on_table", "coordinates": [0.2689298689365387, 0.3696017861366272, 0.002518902998417616]}, {"ID": 4, "name": "yellow_wire", "color": "yellow", "state": "on_table", "coordinates": [0.4012158513069153, 0.21873432397842407, 0.002510858466848731]}, {"ID": 5, "name": "orange_wire", "color": "orange", "state": "on_table", "coordinates": [0.34643709659576416, 0.2908644676208496, 0.0034291520714759827]}, {"ID": 6, "name": "blue_wire", "color": "blue", "state": "on_table", "coordinates": [0.28683897852897644, 0.28179460763931274, 0.007677758112549782]}], "terminals": {"terminal_0": {"state": "empty", "coordinates": [-0.027621079173760346, 0.359666290648337, 0.01312563045413724]}, "terminal_1": {"state": "empty", "coordinates": [-0.02762107822042513, 0.3702318906483348, 0.01312563705891811]}, "terminal_2": {"state": "empty", "coordinates": [-0.027621077267089914, 0.3807974906483327, 0.013125643663698984]}, "terminal_3": {"state": "empty", "coordinates": [-0.027621076324013852, 0.3912493906483306, 0.013125650197403572]}, "terminal_4": {"state": "empty", "coordinates": [-0.027621075380937804, 0.4017012906483285, 0.01312565673110816]}, "terminal_5": {"state": "empty", "coordinates": [-0.027621074437861742, 0.41215319064832645, 0.013125663264812747]}, "terminal_6": {"state": "empty", "coordinates": [-0.027621073492845746, 0.42262659064832436, 0.013125669811957442]}, "terminal_7": {"state": "empty", "coordinates": [-0.027621072541405348, 0.4331711906483222, 0.013125676403610767]}, "terminal_8": {"state": "empty", "coordinates": [-0.027621071599962466, 0.44360499064832015, 0.013125682926000661]}}, "metadata": {"simulation_id": 29, "action_number": 0, "created_datetime": "2025-06-19T10:53:34.240064", "seed": 29}}